[{"link_title": null, "description": null, "fips_class": "C5", "url": "http://valleycity.govoffice.com/", "name": "Valley City", "feature_id": "20746", "state_name": "North Dakota", "fips_county_cd": "3", "state_abbreviation": "ND", "full_county_name": "Barnes County", "county_name": "Barnes", "primary_latitude": "46.92", "primary_longitude": "-98", "feat_class": "Populated Place"}, {"link_title": null, "description": null, "fips_class": "C5", "url": "http://www.jamestownnd.com/", "name": "Jamestown", "feature_id": "19987", "state_name": "North Dakota", "fips_county_cd": "93", "state_abbreviation": "ND", "full_county_name": "Stutsman County", "county_name": "Stutsman", "primary_latitude": "46.91", "primary_longitude": "-98.7", "feat_class": "Populated Place"}, {"link_title": null, "description": null, "fips_class": "C5", "url": "http://www.wahpeton.com/", "name": "Wahpeton", "feature_id": "20775", "state_name": "North Dakota", "fips_county_cd": "77", "state_abbreviation": "ND", "full_county_name": "Richland County", "county_name": "Richland", "primary_latitude": "46.26", "primary_longitude": "-96.6", "feat_class": "Populated Place"}, {"link_title": null, "description": null, "fips_class": "C5", "url": "http://rugbynorthdakota.com/", "name": "Rugby", "feature_id": "20520", "state_name": "North Dakota", "fips_county_cd": "69", "state_abbreviation": "ND", "full_county_name": "Pierce County", "county_name": "Pierce", "primary_latitude": "48.36", "primary_longitude": "-99.99", "feat_class": "Populated Place"}, {"link_title": null, "description": null, "fips_class": "C5", "url": "http://www.killdeer.com/", "name": "Killdeer", "feature_id": "20017", "state_name": "North Dakota", "fips_county_cd": "25", "state_abbreviation": "ND", "full_county_name": "Dunn County", "county_name": "Dunn", "primary_latitude": "47.37", "primary_longitude": "-102.75", "feat_class": "Populated Place"}, {"link_title": null, "description": null, "fips_class": "C5", "url": "http://www.kulmnd.com/", "name": "Kulm", "feature_id": "20030", "state_name": "North Dakota", "fips_county_cd": "45", "state_abbreviation": "ND", "full_county_name": "LaMoure County", "county_name": "LaMoure", "primary_latitude": "46.3", "primary_longitude": "-98.94", "feat_class": "Populated Place"}, {"link_title": null, "description": null, "fips_class": "C5", "url": "http://www.oakesnd.com/", "name": "Oakes", "feature_id": "20319", "state_name": "North Dakota", "fips_county_cd": "21", "state_abbreviation": "ND", "full_county_name": "Dickey County", "county_name": "Dickey", "primary_latitude": "46.13", "primary_longitude": "-98.09", "feat_class": "Populated Place"}, {"link_title": null, "description": null, "fips_class": "C5", "url": "http://www.willistonnd.com/", "name": "Williston", "feature_id": "20844", "state_name": "North Dakota", "fips_county_cd": "105", "state_abbreviation": "ND", "full_county_name": "Williams County", "county_name": "Williams", "primary_latitude": "48.14", "primary_longitude": "-103.61", "feat_class": "Populated Place"}, {"link_title": null, "description": null, "fips_class": "C5", "url": "http://www.grandforksgov.com/", "name": "Grand Forks", "feature_id": "19822", "state_name": "North Dakota", "fips_county_cd": "35", "state_abbreviation": "ND", "full_county_name": "Grand Forks County", "county_name": "Grand Forks", "primary_latitude": "47.92", "primary_longitude": "-97.03", "feat_class": "Populated Place"}, {"link_title": null, "description": null, "fips_class": "C5", "url": "http://www.ci.devils-lake.nd.us/", "name": "Devils Lake", "feature_id": "19587", "state_name": "North Dakota", "fips_county_cd": "71", "state_abbreviation": "ND", "full_county_name": "Ramsey County", "county_name": "Ramsey", "primary_latitude": "48.11", "primary_longitude": "-98.86", "feat_class": "Populated Place"}, {"link_title": null, "description": null, "fips_class": "C5", "url": "http://www.dickinsongov.com/", "name": "Dickinson", "feature_id": "19591", "state_name": "North Dakota", "fips_county_cd": "89", "state_abbreviation": "ND", "full_county_name": "Stark County", "county_name": "Stark", "primary_latitude": "46.87", "primary_longitude": "-102.78", "feat_class": "Populated Place"}, {"link_title": null, "description": null, "fips_class": "C5", "url": "http://www.beulahnd.org/", "name": "Beulah", "feature_id": "19347", "state_name": "North Dakota", "fips_county_cd": "57", "state_abbreviation": "ND", "full_county_name": "Mercer County", "county_name": "Mercer", "primary_latitude": "47.26", "primary_longitude": "-101.77", "feat_class": "Populated Place"}, {"link_title": null, "description": null, "fips_class": "C5", "url": "http://www.bismarck.org/", "name": "Bismarck", "feature_id": "19360", "state_name": "North Dakota", "fips_county_cd": "15", "state_abbreviation": "ND", "full_county_name": "Burleigh County", "county_name": "Burleigh", "primary_latitude": "46.8", "primary_longitude": "-100.78", "feat_class": "Populated Place"}, {"link_title": null, "description": null, "fips_class": "C5", "url": "http://www.cityofmandan.com/", "name": "Mandan", "feature_id": "20137", "state_name": "North Dakota", "fips_county_cd": "59", "state_abbreviation": "ND", "full_county_name": "Morton County", "county_name": "Morton", "primary_latitude": "46.82", "primary_longitude": "-100.88", "feat_class": "Populated Place"}, {"link_title": null, "description": null, "fips_class": "C5", "url": "http://bottineau.govoffice.com/", "name": "Bottineau", "feature_id": "19383", "state_name": "North Dakota", "fips_county_cd": "9", "state_abbreviation": "ND", "full_county_name": "Bottineau County", "county_name": "Bottineau", "primary_latitude": "48.82", "primary_longitude": "-100.44", "feat_class": "Populated Place"}, {"link_title": null, "description": null, "fips_class": "C5", "url": "http://www.surreynd.org/", "name": "Surrey", "feature_id": "20679", "state_name": "North Dakota", "fips_county_cd": "101", "state_abbreviation": "ND", "full_county_name": "Ward County", "county_name": "Ward", "primary_latitude": "48.23", "primary_longitude": "-101.13", "feat_class": "Populated Place"}, {"link_title": null, "description": null, "fips_class": "C5", "url": "http://www.wrtc.com/citytl/", "name": "Turtle Lake", "feature_id": "20726", "state_name": "North Dakota", "fips_county_cd": "55", "state_abbreviation": "ND", "full_county_name": "McLean County", "county_name": "McLean", "primary_latitude": "47.51", "primary_longitude": "-100.89", "feat_class": "Populated Place"}, {"link_title": null, "description": null, "fips_class": "C5", "url": "http://www.ci.fargo.nd.us/", "name": "Fargo", "feature_id": "19703", "state_name": "North Dakota", "fips_county_cd": "17", "state_abbreviation": "ND", "full_county_name": "Cass County", "county_name": "Cass", "primary_latitude": "46.87", "primary_longitude": "-96.78", "feat_class": "Populated Place"}, {"link_title": null, "description": null, "fips_class": "C5", "url": "http://web.ci.minot.nd.us/", "name": "Minot", "feature_id": "20215", "state_name": "North Dakota", "fips_county_cd": "101", "state_abbreviation": "ND", "full_county_name": "Ward County", "county_name": "Ward", "primary_latitude": "48.23", "primary_longitude": "-101.29", "feat_class": "Populated Place"}, {"link_title": null, "description": null, "fips_class": "C5", "url": "http://www.mohallndak.com/", "name": "Mohall", "feature_id": "20222", "state_name": "North Dakota", "fips_county_cd": "75", "state_abbreviation": "ND", "full_county_name": "Renville County", "county_name": "Renville", "primary_latitude": "48.76", "primary_longitude": "-101.51", "feat_class": "Populated Place"}]